[
    {
        "nombre": "Salida salón del Reino", 
        "lat": 5.087537003998918, 
        "lon": -75.48755647048758, 
        "icon": "info-sign", 
        "color": "green"
    },
    {
        "nombre": "Jardín infantil de san sebastián", 
        "lat": 5.086086903082432, 
        "lon": -75.49049347646822, 
        "icon": "info-sign", 
        "color": "blue"
    },
    {
        "nombre": "Colegio Bosques del norte", 
        "lat": 5.083249595059073, 
        "lon": -75.48877765232507, 
        "icon": "info-sign", 
        "color": "blue"
    },
    {
        "nombre": "Casa de la justicia", 
        "lat": 5.083828171153257, 
        "lon": -75.48999103353576, 
        "icon": "info-sign", 
        "color": "blue"
    },
    {
        "nombre": "Casa de la hermana Lina", 
        "lat": 5.08475201553415, 
        "lon": -75.49005837243199, 
        "icon": "info-sign", 
        "color": "blue"
    },
    {
        "nombre": "Salida casa del hermano Ovidio", 
        "lat": 5.083072932505857, 
        "lon": -75.48921289844374, 
        "icon": "info-sign", 
        "color": "green"
    },
    {
        "nombre": "Casa hermana Diana Torres", 
        "lat": 5.0868788789567105, 
        "lon": -75.4904304045022, 
        "icon": "info-sign", 
        "color": "blue"
    },
    {
        "nombre": "Salida hermano Mequisedec", 
        "lat": 5.084275938895473, 
        "lon": -75.48932051932658, 
        "icon": "info-sign", 
        "color": "green"
    },
    {
        "nombre": "Casa hermanos Castro", 
        "lat": 5.089538215431745, 
        "lon": -75.48805960612421, 
        "icon": "info-sign", 
        "color": "blue"
    },
    {
        "nombre": "Casa hermano Delio", 
        "lat": 5.078609332911171, 
        "lon": -75.49087594166457, 
        "icon": "info-sign", 
        "color": "blue"
    },
    {
        "nombre": "Casa hermano Beatriz Monsalve", 
        "lat": 5.088257769569452, 
        "lon": -75.48735567836745, 
        "icon": "info-sign", 
        "color": "blue"
    },
    {
        "nombre": "Salida familia Cardona (Albeiro)", 
        "lat": 5.080389250161119, 
        "lon": -75.48974497492999, 
        "icon": "info-sign", 
        "color": "green"
    },
    {
        "nombre": "Casa familia Pineda", 
        "lat": 5.078679865729583, 
        "lon": -75.4902966777041, 
        "icon": "info-sign", 
        "color": "green"
    },
    {
        "nombre": "Casa hermana Luz", 
        "lat": 5.077760089694266, 
        "lon": -75.49053612929934, 
        "icon": "info-sign", 
        "color": "green"
    },
    {
        "nombre": "Casa hermana María Evangelina", 
        "lat": 5.082356277774977, 
        "lon": -75.49035695074654, 
        "icon": "info-sign", 
        "color": "blue"
    },
    {
        "nombre": "Zona volquetas", 
        "lat": 5.081718816370213, 
        "lon": -75.49108503703022, 
        "icon": "info-sign", 
        "color": "blue"
    }
]